[{"chain": "ikea", "name": "IKEA Tempe", "street": "2110 West IKEA Way", "city": "Tempe, AZ 85284", "lat": 33.340977800000005, "lon": -111.97051135181616, "nearest_distance": 13.260700472581288, "nearest_lat": 33.31804233283485, "nearest_lon": -111.74292908050951}, {"chain": "ikea", "name": "IKEA Burbank", "street": "600 South IKEA Way", "city": "Burbank, CA 91502", "lat": 34.175509758577554, "lon": -118.30509765316197, "nearest_distance": 18.995680688524722, "nearest_lat": 33.9105107, "nearest_lon": -118.3960433}, {"chain": "ikea", "name": "IKEA Carson", "street": "20700 South Avalon Blvd", "city": "Carson, CA 90746", "lat": 33.8431709055701, "lon": -118.26284460265246, "nearest_distance": 8.954082352861764, "nearest_lat": 33.9105107, "nearest_lon": -118.3960433}, {"chain": "ikea", "name": "IKEA Costa Mesa", "street": "1475 South Coast Drive", "city": "Costa Mesa, CA 92626", "lat": 33.690974, "lon": -117.91647006339653, "nearest_distance": 31.47022835173707, "nearest_lat": 33.9105107, "nearest_lon": -118.3960433}, {"chain": "ikea", "name": "IKEA Covina", "street": "848 South Barranca Ave", "city": "Covina, CA 91723", "lat": 34.0740436, "lon": -117.8789306, "nearest_distance": 16.44602030256929, "nearest_lat": "34.076530", "nearest_lon": "-117.592203"}, {"chain": "ikea", "name": "IKEA East Palo Alto", "street": "1700 East Bayshore Road", "city": "East Palo Alto, CA 94303", "lat": 37.4595511, "lon": -122.1385176, "nearest_distance": 9.612205727132945, "nearest_lat": "37.423096", "nearest_lon": "-121.969797"}, {"chain": "ikea", "name": "IKEA Emeryville", "street": "4400 Shellmound Street", "city": "Emeryville, CA 94608", "lat": 37.83172355, "lon": -122.29192229515078, "nearest_distance": 33.26222060288177, "nearest_lat": "37.423096", "nearest_lon": "-121.969797"}, {"chain": "ikea", "name": "IKEA San Diego", "street": "2149 Fenton Parkway", "city": "San Diego, CA 92108", "lat": 32.780584, "lon": -117.127187, "nearest_distance": 93.26799716461541, "nearest_lat": "34.076530", "nearest_lon": "-117.592203"}, {"chain": "ikea", "name": "IKEA San Francisco", "street": "945 Market Street", "city": "San Francisco, CA 94103", "lat": 37.7830959, "lon": -122.4088537, "nearest_distance": 34.59428902324632, "nearest_lat": "37.423096", "nearest_lon": "-121.969797"}, {"chain": "ikea", "name": "IKEA West Sacramento", "street": "700 IKEA Court", "city": "West Sacramento, CA 95605", "lat": 38.586645399999995, "lon": -121.55356413697707, "nearest_distance": 19.80626764899936, "nearest_lat": 38.790688200000005, "nearest_lon": -121.29579677753782}, {"chain": "ikea", "name": "IKEA Centennial", "street": "9800 East IKEA Way", "city": "Centennial, CO 80112", "lat": 39.5729126, "lon": -104.8756329, "nearest_distance": 1.2707232600072285, "nearest_lat": 39.58954129999999, "nearest_lon": -104.86539534033443}, {"chain": "ikea", "name": "IKEA New Haven", "street": "450 Sargent Drive", "city": "New Haven, CT 06511", "lat": 41.2959499, "lon": -72.92005602699217, "nearest_distance": 33.46811944624205, "nearest_lat": 40.821176214285714, "nearest_lon": -73.05094342857143}, {"chain": "ikea", "name": "IKEA Jacksonville", "street": "7801 Gate Parkway", "city": "Jacksonville, FL 32256", "lat": 30.2382359, "lon": -81.5162915, "nearest_distance": 1.7405592710370563, "nearest_lat": 30.263224, "nearest_lon": -81.5206138}, {"chain": "ikea", "name": "IKEA Miami", "street": "1801 NW 117th Ave", "city": "Sweetwater, FL 33172", "lat": 25.791430849999998, "lon": -80.38370913586371, "nearest_distance": 0.3197040168084971, "nearest_lat": 25.7933154, "nearest_lon": -80.3883979}, {"chain": "ikea", "name": "IKEA Orlando", "street": "4092 Eastgate Dr", "city": "Orlando, FL 32839", "lat": 28.48255885, "lon": -81.42752638711488, "nearest_distance": 2.8668833155221036, "nearest_lat": 28.4567075, "nearest_lon": -81.4644546}, {"chain": "ikea", "name": "IKEA Sunrise", "street": "151 NW 136th Ave", "city": "Sunrise, FL 33325", "lat": 26.120191066849372, "lon": -80.33029183834701, "nearest_distance": 13.178432931093147, "nearest_lat": 26.2249971, "nearest_lon": -80.1527639}, {"chain": "ikea", "name": "IKEA Tampa", "street": "1103 N 22nd Street", "city": "Tampa, FL 33605", "lat": 27.954698938775508, "lon": -82.43462385714285, "nearest_distance": 6.407130925476377, "nearest_lat": 27.930392150000003, "nearest_lon": -82.33348754480602}, {"chain": "ikea", "name": "IKEA Atlanta", "street": "441 16th Street", "city": "Atlanta, GA 30363", "lat": 33.78896730849618, "lon": -84.4005448649016, "nearest_distance": 1.7303494776594681, "nearest_lat": "33.799015", "nearest_lon": "-84.428102"}, {"chain": "ikea", "name": "IKEA Bolingbrook", "street": "750 E Boughton", "city": "Bolingbrook, IL 60440", "lat": 41.7099908, "lon": -88.0716274, "nearest_distance": 9.802307597283633, "nearest_lat": 41.8079349, "nearest_lon": -88.2090019}, {"chain": "ikea", "name": "IKEA Schaumburg", "street": "1800 McConnor Pkwy", "city": "Schaumburg, IL 60173", "lat": 42.057015699999994, "lon": -88.03631512578698, "nearest_distance": 1.17516831734888, "nearest_lat": 42.064543549999996, "nearest_lon": -88.05680966845162}, {"chain": "ikea", "name": "IKEA Fishers", "street": "11400 IKEA Way", "city": "Fishers, IN 46037", "lat": 39.956803, "lon": -86.002655, "nearest_distance": 0.18802353401465127, "nearest_lat": 39.959046, "nearest_lon": -86.0046664}, {"chain": "ikea", "name": "IKEA Merriam", "street": "6000 IKEA Way", "city": "Merriam, KS 66202", "lat": 39.0197355, "lon": -94.6904064, "nearest_distance": 6.1958230311790174, "nearest_lat": 38.936477249999996, "nearest_lon": -94.64723672291828}, {"chain": "ikea", "name": "IKEA Stoughton", "street": "One IKEA Way", "city": "Stoughton, MA 02072", "lat": "42.1383591", "lon": "-71.0706215", "nearest_distance": 5.769284785596967, "nearest_lat": 42.1957896, "nearest_lon": -71.15226285363943}, {"chain": "ikea", "name": "IKEA Baltimore", "street": "8352 Honeygo Boulevard", "city": "Baltimore, MD 21236", "lat": 39.375308950000004, "lon": -76.46174552032275, "nearest_distance": 11.139934784858385, "nearest_lat": 39.2748811, "nearest_lon": -76.6245587}, {"chain": "ikea", "name": "IKEA College Park", "street": "10100 Baltimore Avenue", "city": "College Park, MD 20740", "lat": 39.02059455, "lon": -76.92891796016653, "nearest_distance": 15.506718416534959, "nearest_lat": 38.801655249999996, "nearest_lon": -76.99417651672019}, {"chain": "ikea", "name": "IKEA Canton", "street": "41640 Ford Road", "city": "Canton, MI 48187", "lat": 42.3250771, "lon": -83.4513327, "nearest_distance": 27.007325877164288, "nearest_lat": 42.699248, "nearest_lon": -83.296674}, {"chain": "ikea", "name": "IKEA Minneapolis", "street": "8000 IKEA Way", "city": "Bloomington, MN 55425", "lat": 44.8591358, "lon": -93.2423471, "nearest_distance": 14.868602747098633, "nearest_lat": 45.072015750000006, "nearest_lon": -93.28787447157985}, {"chain": "ikea", "name": "IKEA St. Louis", "street": "1 IKEA Way", "city": "St. Louis, MO 63108", "lat": "38.6336041", "lon": "-90.2475569", "nearest_distance": 1.1324138436060813, "nearest_lat": 38.624669, "nearest_lon": -90.229999}, {"chain": "ikea", "name": "IKEA Charlotte", "street": "8300 IKEA Boulevard", "city": "Charlotte, NC 28262", "lat": 35.29442614113716, "lon": -80.76263043488903, "nearest_distance": 0.5874938694101332, "nearest_lat": 35.2880537, "nearest_lon": -80.76953170987204}, {"chain": "ikea", "name": "IKEA Elizabeth", "street": "1000 IKEA Drive", "city": "Elizabeth, NJ 07201", "lat": 40.6756755, "lon": -74.16954645404275, "nearest_distance": 14.98456268208892, "nearest_lat": "40.519996", "nearest_lon": "-74.368181"}, {"chain": "ikea", "name": "IKEA Paramus", "street": "100 IKEA Drive", "city": "Paramus, NJ 07652", "lat": 40.9249404, "lon": -74.0744776, "nearest_distance": 31.91391760957145, "nearest_lat": "40.519996", "nearest_lon": "-74.368181"}, {"chain": "ikea", "name": "IKEA Las Vegas", "street": "6500 IKEA Way", "city": "Las Vegas, NV 89148", "lat": "36.068849", "lon": "-115.2831848", "nearest_distance": 7.103575588132916, "nearest_lat": 36.10423932653061, "nearest_lon": -115.16397673469388}, {"chain": "ikea", "name": "IKEA Brooklyn", "street": "1 Beard Street", "city": "Brooklyn, NY 11231", "lat": 40.67144785, "lon": -74.01121539224383, "nearest_distance": 21.487776057887324, "nearest_lat": "40.519996", "nearest_lon": "-74.368181"}, {"chain": "ikea", "name": "IKEA Long Island", "street": "1100 Broadway Mall", "city": "Hicksville, NY 11801", "lat": 40.7720181, "lon": -73.53117695560614, "nearest_distance": 25.410625598536367, "nearest_lat": 40.821176214285714, "nearest_lon": -73.05094342857143}, {"chain": "ikea", "name": "IKEA Columbus", "street": "1900 IKEA Way", "city": "Columbus, OH 43240", "lat": 40.1504704, "lon": -82.96693553296723, "nearest_distance": 0.21111452607529682, "nearest_lat": 40.15000895, "nearest_lon": -82.96299369261311}, {"chain": "ikea", "name": "IKEA West Chester", "street": "9500 IKEA Way", "city": "West Chester, OH 45069", "lat": "39.3154719", "lon": "-84.4365726", "nearest_distance": 0.6001832265803317, "nearest_lat": 39.3162396, "nearest_lon": -84.42541612771083}, {"chain": "ikea", "name": "IKEA Portland", "street": "10280 NE Cascades Parkway", "city": "Portland, OR 97220", "lat": 45.5706554, "lon": -122.5541842, "nearest_distance": 17.961370990675267, "nearest_lat": 45.559828749999994, "nearest_lon": -122.92413203425079}, {"chain": "ikea", "name": "IKEA Conshohocken", "street": "400 Alan Wood Road", "city": "Conshohocken, PA 19428", "lat": 40.094450300000005, "lon": -75.3065955903482, "nearest_distance": 5.180871403041766, "nearest_lat": 40.08625809183673, "nearest_lon": -75.40378039795918}, {"chain": "ikea", "name": "IKEA Pittsburgh", "street": "2001 Park Manor Boulevard", "city": "Pittsburgh, PA 15205", "lat": 40.45195635, "lon": -80.16811591458958, "nearest_distance": 6.332088058629798, "nearest_lat": 40.3669206, "nearest_lon": -80.12297091799384}, {"chain": "ikea", "name": "IKEA South Philadelphia", "street": "2206 S Christopher Columbus Blvd", "city": "Philadelphia, PA 19148", "lat": 39.917090650000006, "lon": -75.14184418593814, "nearest_distance": 14.310451457646927, "nearest_lat": 39.95082180059886, "nearest_lon": -74.87599348064768}, {"chain": "ikea", "name": "IKEA Memphis", "street": "7900 IKEA Way", "city": "Cordova, TN 38016", "lat": 35.1901067, "lon": -89.79891682750161, "nearest_distance": 10.54391933130528, "nearest_lat": 35.0385944, "nearest_lon": -89.8243877}, {"chain": "ikea", "name": "IKEA Frisco", "street": "7171 IKEA Drive", "city": "Frisco, TX 75034", "lat": 33.0936814, "lon": -96.82111383832958, "nearest_distance": 3.94177058126015, "nearest_lat": 33.07065535, "nearest_lon": -96.8833089740568}, {"chain": "ikea", "name": "IKEA Grand Prairie", "street": "1000 IKEA Way", "city": "Grand Prairie, TX 75052", "lat": "32.6906339", "lon": "-97.0252019", "nearest_distance": 17.58295067445058, "nearest_lat": 32.762384877239356, "nearest_lon": -97.31488693309701}, {"chain": "ikea", "name": "IKEA Houston", "street": "7810 Katy Freeway", "city": "Houston, TX 77024", "lat": 29.783144783254738, "lon": -95.47415153359808, "nearest_distance": 10.593766269736529, "nearest_lat": 29.7867778, "nearest_lon": -95.6504223}, {"chain": "ikea", "name": "IKEA Live Oak", "street": "1000 IKEA RBFCU Parkway", "city": "Live Oak, TX 78233", "lat": 29.5661842, "lon": -98.3387533, "nearest_distance": 15.507150651615715, "nearest_lat": 29.5945629, "nearest_lon": -98.5942739894374}, {"chain": "ikea", "name": "IKEA Round Rock", "street": "1 IKEA Way", "city": "Round Rock, TX 78665", "lat": 30.5578568, "lon": -97.6905133, "nearest_distance": 11.111304283016564, "nearest_lat": 30.3982612, "nearest_lon": -97.71752199102005}, {"chain": "ikea", "name": "IKEA Draper", "street": "67 West IKEA Way", "city": "Draper, UT 84020", "lat": "40.5086212", "lon": "-111.8957641", "nearest_distance": 7.882163496406694, "nearest_lat": 40.62191409284301, "nearest_lon": -111.91494641162421}, {"chain": "ikea", "name": "IKEA Norfolk", "street": "1500 IKEA Way", "city": "Norfolk, VA 23502", "lat": 36.87635, "lon": -76.20127826240403, "nearest_distance": 2.8439937499480457, "nearest_lat": 36.842262266290746, "nearest_lon": -76.17238572312851}, {"chain": "ikea", "name": "IKEA Woodbridge", "street": "2900 Potomac Mills Circle", "city": "Woodbridge, VA 22192", "lat": "38.6450463", "lon": "-77.2924021", "nearest_distance": 19.400735639922882, "nearest_lat": 38.801655249999996, "nearest_lon": -76.99417651672019}, {"chain": "ikea", "name": "IKEA Renton", "street": "601 SW 41st Street", "city": "Renton, WA 98057", "lat": 47.4425408, "lon": -122.22856348511601, "nearest_distance": 3.70958401730193, "nearest_lat": 47.49419869118172, "nearest_lon": -122.20694954670147}, {"chain": "ikea", "name": "IKEA Oak Creek", "street": "7500 S IKEA Way", "city": "Oak Creek, WI 53154", "lat": 42.9075831, "lon": -87.93869524320453, "nearest_distance": 58.50164279740483, "nearest_lat": 42.064543549999996, "nearest_lon": -88.05680966845162}]