[{"name": "Birmingham", "street": "1111 24th St N", "city": "Birmingham", "state": "AL", "lat": 33.5292607, "lon": -86.8077255, "chain": "topgolf", "nearest_distance": 139.88081120950585, "nearest_lat": 33.78896730849618, "nearest_lon": -84.4005448649016}, {"name": "Huntsville", "street": "6100 Topgolf Drive NW", "city": "Huntsville", "state": "AL", "lat": 34.7376141, "lon": -86.6678248, "chain": "topgolf", "nearest_distance": 145.28992156012237, "nearest_lat": 33.78896730849618, "nearest_lon": -84.4005448649016}, {"name": "Mobile", "street": "1250 Satchel Paige Drive", "city": "Mobile", "state": "AL", "lat": 30.6487954, "lon": -88.1161989, "chain": "topgolf", "nearest_distance": 306.84789642750104, "nearest_lat": 33.78896730849618, "nearest_lon": -84.4005448649016}, {"name": "Phoenix - Gilbert", "street": "1689 S. Santan Village Pkwy", "city": "Gilbert", "state": "AZ", "lat": 33.31804233283485, "lon": -111.74292908050951, "chain": "topgolf", "nearest_distance": 13.260700472581288, "nearest_lat": 33.340977800000005, "nearest_lon": -111.97051135181616}, {"name": "Phoenix - Glendale", "street": "6101 N. 99th Ave.", "city": "Glendale", "state": "AZ", "lat": 33.52521295, "lon": -112.27105778329562, "chain": "topgolf", "nearest_distance": 21.513177000309245, "nearest_lat": 33.340977800000005, "nearest_lon": -111.97051135181616}, {"name": "Phoenix - Scottsdale", "street": "9500 E. Talking Stick Way", "city": "Scottsdale", "state": "AZ", "lat": 33.54120785, "lon": -111.87681212801752, "chain": "topgolf", "nearest_distance": 14.82337952035714, "nearest_lat": 33.340977800000005, "nearest_lon": -111.97051135181616}, {"name": "Tucson - Marana", "street": "4050 W Costco Pl", "city": "Tucson", "state": "AZ", "lat": "32.328362", "lon": "-111.048501", "chain": "topgolf", "nearest_distance": 88.0134214841556, "nearest_lat": 33.340977800000005, "nearest_lon": -111.97051135181616}, {"name": "Little Rock", "street": "5 Topgolf Way", "city": "Little Rock", "state": "AR", "lat": "34.716354", "lon": "-92.405860", "chain": "topgolf", "nearest_distance": 151.51612271311473, "nearest_lat": 35.1901067, "nearest_lon": -89.79891682750161}, {"name": "Northwest Arkansas - Rogers", "street": "3919 S. JB Hunt Drive", "city": "Rogers", "state": "AR", "lat": 36.30019085, "lon": -94.1828688481261, "chain": "topgolf", "nearest_distance": 189.60825628338895, "nearest_lat": 39.0197355, "nearest_lon": -94.6904064}, {"name": "Los Angeles - El Segundo", "street": "400 S Pacific Coast Highway", "city": "El Segundo", "state": "CA", "lat": 33.9105107, "lon": -118.3960433, "chain": "topgolf", "nearest_distance": 8.954082352861764, "nearest_lat": 33.8431709055701, "nearest_lon": -118.26284460265246}, {"name": "Los Angeles - Ontario", "street": "1050 N. Archibald Avenue", "city": "Ontario", "state": "CA", "lat": "34.076530", "lon": "-117.592203", "chain": "topgolf", "nearest_distance": 16.44602030256929, "nearest_lat": 34.0740436, "nearest_lon": -117.8789306}, {"name": "Sacramento - Roseville", "street": "1700 Freedom Way", "city": "Roseville", "state": "CA", "lat": 38.790688200000005, "lon": -121.29579677753782, "chain": "topgolf", "nearest_distance": 19.80626764899936, "nearest_lat": 38.586645399999995, "nearest_lon": -121.55356413697707}, {"name": "San Jose", "street": "10 Topgolf Drive", "city": "San Jose", "state": "CA", "lat": "37.423096", "lon": "-121.969797", "chain": "topgolf", "nearest_distance": 9.612205727132945, "nearest_lat": 37.4595511, "nearest_lon": -122.1385176}, {"name": "Colorado Springs", "street": "165 Spectrum Loop", "city": "Colorado Springs", "state": "CO", "lat": 39.02311615, "lon": -104.82058557041844, "chain": "topgolf", "nearest_distance": 38.042499177842224, "nearest_lat": 39.5729126, "nearest_lon": -104.8756329}, {"name": "Denver - Centennial", "street": "10601 E Easter Ave", "city": "Centennial", "state": "CO", "lat": 39.58954129999999, "lon": -104.86539534033443, "chain": "topgolf", "nearest_distance": 1.2707232600072285, "nearest_lat": 39.5729126, "nearest_lon": -104.8756329}, {"name": "Denver - Thornton", "street": "16011 Grant Street", "city": "Thornton", "state": "CO", "lat": 39.98797795, "lon": -104.985806829338, "chain": "topgolf", "nearest_distance": 29.230183379536722, "nearest_lat": 39.5729126, "nearest_lon": -104.8756329}, {"name": "Fort Myers", "street": "2021 Topgolf Way", "city": "Fort Myers", "state": "FL", "lat": 26.6096391, "lon": -81.80382262303996, "chain": "topgolf", "nearest_distance": 97.39705253411793, "nearest_lat": 26.120191066849372, "nearest_lon": -80.33029183834701}, {"name": "Jacksonville", "street": "10531 Brightman Blvd", "city": "Jacksonville", "state": "FL", "lat": 30.263224, "lon": -81.5206138, "chain": "topgolf", "nearest_distance": 1.7405592710370563, "nearest_lat": 30.2382359, "nearest_lon": -81.5162915}, {"name": "Lake Mary", "street": "1010 Greenwood Blvd", "city": "Lake Mary", "state": "FL", "lat": 28.7495992, "lon": -81.3591563, "chain": "topgolf", "nearest_distance": 18.853542185965015, "nearest_lat": 28.48255885, "nearest_lon": -81.42752638711488}, {"name": "Miami - Doral", "street": "11850 NW 22nd St", "city": "Doral", "state": "FL", "lat": 25.7933154, "lon": -80.3883979, "chain": "topgolf", "nearest_distance": 0.3197040168084971, "nearest_lat": 25.791430849999998, "nearest_lon": -80.38370913586371}, {"name": "Miami Gardens", "street": "17321 NW 7th Ave.", "city": "Miami Gardens", "state": "FL", "lat": 25.93351518853053, "lon": -80.21188600431313, "chain": "topgolf", "nearest_distance": 14.497963840118476, "nearest_lat": 25.791430849999998, "nearest_lon": -80.38370913586371}, {"name": "Orlando", "street": "9295 Universal Blvd.", "city": "Orlando", "state": "FL", "lat": 28.4567075, "lon": -81.4644546, "chain": "topgolf", "nearest_distance": 2.8668833155221036, "nearest_lat": 28.48255885, "nearest_lon": -81.42752638711488}, {"name": "Pompano Beach", "street": "400 Lucky Lane", "city": "Pompano Beach", "state": "FL", "lat": 26.2249971, "lon": -80.1527639, "chain": "topgolf", "nearest_distance": 13.178432931093147, "nearest_lat": 26.120191066849372, "nearest_lon": -80.33029183834701}, {"name": "St. Petersburg", "street": "220 Carillon Pkwy N", "city": "St. Petersburg", "state": "FL", "lat": "27.889254", "lon": "-82.662407", "chain": "topgolf", "nearest_distance": 14.642658340016224, "nearest_lat": 27.954698938775508, "nearest_lon": -82.43462385714285}, {"name": "Tampa", "street": "10690 Palm River Road", "city": "Tampa", "state": "FL", "lat": 27.930392150000003, "lon": -82.33348754480602, "chain": "topgolf", "nearest_distance": 6.407130925476377, "nearest_lat": 27.954698938775508, "nearest_lon": -82.43462385714285}, {"name": "Atlanta - Alpharetta", "street": "10900 Westside Parkway", "city": "Alpharetta", "state": "GA", "lat": 34.0448951, "lon": -84.3083183, "chain": "topgolf", "nearest_distance": 18.418186935302067, "nearest_lat": 33.78896730849618, "nearest_lon": -84.4005448649016}, {"name": "Atlanta - Buford", "street": "2935 Buford Dr", "city": "Buford", "state": "GA", "lat": 34.0910883, "lon": -83.999692, "chain": "topgolf", "nearest_distance": 31.045994308848027, "nearest_lat": 33.78896730849618, "nearest_lon": -84.4005448649016}, {"name": "Atlanta - Midtown", "street": "1600 Ellsworth Industrial Blvd NW", "city": "Atlanta", "state": "GA", "lat": "33.799015", "lon": "-84.428102", "chain": "topgolf", "nearest_distance": 1.7303494776594681, "nearest_lat": 33.78896730849618, "nearest_lon": -84.4005448649016}, {"name": "Augusta", "street": "437 Topgolf Way", "city": "Augusta", "state": "GA", "lat": "33.525577", "lon": "-82.014986", "chain": "topgolf", "nearest_distance": 138.68099365643326, "nearest_lat": 33.78896730849618, "nearest_lon": -84.4005448649016}, {"name": "Boise", "street": "1050 S Silverstone Way", "city": "Meridian", "state": "ID", "lat": 43.5903618, "lon": -116.3498068, "chain": "topgolf", "nearest_distance": 312.5394229796317, "nearest_lat": "40.5086212", "nearest_lon": "-111.8957641"}, {"name": "Chicago - Naperville", "street": "3211 Odyssey Ct", "city": "Naperville", "state": "IL", "lat": 41.8079349, "lon": -88.2090019, "chain": "topgolf", "nearest_distance": 9.802307597283633, "nearest_lat": 41.7099908, "nearest_lon": -88.0716274}, {"name": "Chicago - Schaumburg", "street": "2050 Progress Pkwy", "city": "Schaumburg", "state": "IL", "lat": 42.064543549999996, "lon": -88.05680966845162, "chain": "topgolf", "nearest_distance": 1.17516831734888, "nearest_lat": 42.057015699999994, "nearest_lon": -88.03631512578698}, {"name": "Indianapolis - Fishers", "street": "9200 E 116th St.", "city": "Fishers", "state": "IN", "lat": 39.959046, "lon": -86.0046664, "chain": "topgolf", "nearest_distance": 0.18802353401465127, "nearest_lat": 39.956803, "nearest_lon": -86.002655}, {"name": "Kansas City - Overland Park", "street": "10611 Nall Ave", "city": "Overland Park", "state": "KS", "lat": 38.936477249999996, "lon": -94.64723672291828, "chain": "topgolf", "nearest_distance": 6.1958230311790174, "nearest_lat": 39.0197355, "nearest_lon": -94.6904064}, {"name": "Wichita", "street": "2976 N Greenwich Rd", "city": "Wichita", "state": "KS", "lat": 37.73725993092366, "lon": -97.20779230218825, "chain": "topgolf", "nearest_distance": 162.7978857931084, "nearest_lat": 39.0197355, "nearest_lon": -94.6904064}, {"name": "Louisville", "street": "301 Oxmoor Lane", "city": "Louisville", "state": "KY", "lat": 38.24656381180343, "lon": -85.6132396094831, "chain": "topgolf", "nearest_distance": 97.32581501072525, "nearest_lat": "39.3154719", "nearest_lon": "-84.4365726"}, {"name": "Baton Rouge", "street": "10955 N. Mall Drive", "city": "Baton Rouge", "state": "LA", "lat": 30.3802646, "lon": -91.06475665983487, "chain": "topgolf", "nearest_distance": 267.3076587119311, "nearest_lat": 29.783144783254738, "nearest_lon": -95.47415153359808}, {"name": "Lafayette", "street": "301 Meadow Farm Rd", "city": "Lafayette", "state": "LA", "lat": 30.154863, "lon": -92.040778, "chain": "topgolf", "nearest_distance": 207.4851518313231, "nearest_lat": 29.783144783254738, "nearest_lon": -95.47415153359808}, {"name": "Baltimore", "street": "1411 Warner St.", "city": "Baltimore", "state": "MD", "lat": 39.2748811, "lon": -76.6245587, "chain": "topgolf", "nearest_distance": 11.139934784858385, "nearest_lat": 39.375308950000004, "nearest_lon": -76.46174552032275}, {"name": "D.C. - Germantown", "street": "20101 Century Blvd", "city": "Germantown", "state": "MD", "lat": 39.18503835, "lon": -77.25863257460716, "chain": "topgolf", "nearest_distance": 21.041548549236516, "nearest_lat": 39.02059455, "nearest_lon": -76.92891796016653}, {"name": "D.C. - National Harbor", "street": "6400 Clipper Way", "city": "Oxon Hill", "state": "MD", "lat": 38.801655249999996, "lon": -76.99417651672019, "chain": "topgolf", "nearest_distance": 15.506718416534959, "nearest_lat": 39.02059455, "nearest_lon": -76.92891796016653}, {"name": "Canton", "street": "777 Dedham Street", "city": "Canton", "state": "MA", "lat": 42.1957896, "lon": -71.15226285363943, "chain": "topgolf", "nearest_distance": 5.769284785596967, "nearest_lat": "42.1383591", "nearest_lon": "-71.0706215"}, {"name": "Detroit - Auburn Hills", "street": "500 Great Lakes Crossing Dr", "city": "Auburn Hills", "state": "MI", "lat": 42.699248, "lon": -83.296674, "chain": "topgolf", "nearest_distance": 27.007325877164288, "nearest_lat": 42.3250771, "nearest_lon": -83.4513327}, {"name": "Minneapolis - Brooklyn Center", "street": "6420 Camden Ave N.", "city": "Brooklyn Center", "state": "MN", "lat": 45.072015750000006, "lon": -93.28787447157985, "chain": "topgolf", "nearest_distance": 14.868602747098633, "nearest_lat": 44.8591358, "nearest_lon": -93.2423471}, {"name": "St. Louis - Chesterfield", "street": "16851 N Outer 40 Rd.", "city": "Chesterfield", "state": "MO", "lat": "38.670751", "lon": "-90.582786", "chain": "topgolf", "nearest_distance": 18.312573598243393, "nearest_lat": "38.6336041", "nearest_lon": "-90.2475569"}, {"name": "St. Louis", "street": "3201 Chouteau Avenue", "city": "St. Louis", "state": "MO", "lat": 38.624669, "lon": -90.229999, "chain": "topgolf", "nearest_distance": 1.1324138436060813, "nearest_lat": "38.6336041", "nearest_lon": "-90.2475569"}, {"name": "Omaha", "street": "908 N 102nd St.", "city": "Omaha", "state": "NE", "lat": 41.266608, "lon": -96.0746603, "chain": "topgolf", "nearest_distance": 171.4717565531961, "nearest_lat": 39.0197355, "nearest_lon": -94.6904064}, {"name": "Las Vegas", "street": "4627 Koval Lane", "city": "Las Vegas", "state": "NV", "lat": 36.10423932653061, "lon": -115.16397673469388, "chain": "topgolf", "nearest_distance": 7.103575588132916, "nearest_lat": "36.068849", "nearest_lon": "-115.2831848"}, {"name": "Edison", "street": "1013 U.S. Route 1", "city": "Edison", "state": "NJ", "lat": "40.519996", "lon": "-74.368181", "chain": "topgolf", "nearest_distance": 14.98456268208892, "nearest_lat": 40.6756755, "nearest_lon": -74.16954645404275}, {"name": "Mount Laurel", "street": "104 Centerton Rd.", "city": "Mount Laurel", "state": "NJ", "lat": 39.95082180059886, "lon": -74.87599348064768, "chain": "topgolf", "nearest_distance": 14.310451457646927, "nearest_lat": 39.917090650000006, "nearest_lon": -75.14184418593814}, {"name": "Albuquerque", "street": "1600 Desert Surf Circle NE", "city": "Albuquerque", "state": "NM", "lat": 35.13322555386072, "lon": -106.61455893725667, "chain": "topgolf", "nearest_distance": 320.7695266772969, "nearest_lat": 39.5729126, "nearest_lon": -104.8756329}, {"name": "Long Island - Holtsville", "street": "5231 Express Dr N", "city": "Holtsville", "state": "NY", "lat": 40.821176214285714, "lon": -73.05094342857143, "chain": "topgolf", "nearest_distance": 25.410625598536367, "nearest_lat": 40.7720181, "nearest_lon": -73.53117695560614}, {"name": "Charlotte - Southwest", "street": "8024 Savoy Corporate Dr.", "city": "Charlotte", "state": "NC", "lat": 35.15368005, "lon": -80.94508421294572, "chain": "topgolf", "nearest_distance": 14.165794911575183, "nearest_lat": 35.29442614113716, "nearest_lon": -80.76263043488903}, {"name": "Charlotte - University", "street": "9110 Drivers Way", "city": "Charlotte", "state": "NC", "lat": 35.2880537, "lon": -80.76953170987204, "chain": "topgolf", "nearest_distance": 0.5874938694101332, "nearest_lat": 35.29442614113716, "nearest_lon": -80.76263043488903}, {"name": "Durham", "street": "4901 Page Road", "city": "Durham", "state": "NC", "lat": 35.8807065, "lon": -78.8360322, "chain": "topgolf", "nearest_distance": 115.77870708750817, "nearest_lat": 35.29442614113716, "nearest_lon": -80.76263043488903}, {"name": "Cincinnati - West Chester", "street": "9568 Water Front Drive", "city": "West Chester Township", "state": "OH", "lat": 39.3162396, "lon": -84.42541612771083, "chain": "topgolf", "nearest_distance": 0.6001832265803317, "nearest_lat": "39.3154719", "nearest_lon": "-84.4365726"}, {"name": "Cleveland", "street": "5820 Rockside Woods Blvd N", "city": "Independence", "state": "OH", "lat": "41.404073", "lon": "-81.645198", "chain": "topgolf", "nearest_distance": 101.44942483268262, "nearest_lat": 40.45195635, "nearest_lon": -80.16811591458958}, {"name": "Columbus", "street": "2000 IKEA Way", "city": "Columbus", "state": "OH", "lat": 40.15000895, "lon": -82.96299369261311, "chain": "topgolf", "nearest_distance": 0.21111452607529682, "nearest_lat": 40.1504704, "nearest_lon": -82.96693553296723}, {"name": "Oklahoma City", "street": "13313 Pawnee Dr", "city": "Oklahoma City", "state": "OK", "lat": 35.6025939, "lon": -97.5351800299097, "chain": "topgolf", "nearest_distance": 177.6854110291054, "nearest_lat": 33.0936814, "nearest_lon": -96.82111383832958}, {"name": "Portland - Hillsboro", "street": "5505 NE Huffman St", "city": "Hillsboro", "state": "OR", "lat": 45.559828749999994, "lon": -122.92413203425079, "chain": "topgolf", "nearest_distance": 17.961370990675267, "nearest_lat": 45.5706554, "nearest_lon": -122.5541842}, {"name": "King of Prussia", "street": "588 N Gulph Rd", "city": "King of Prussia", "state": "PA", "lat": 40.08625809183673, "lon": -75.40378039795918, "chain": "topgolf", "nearest_distance": 5.180871403041766, "nearest_lat": 40.094450300000005, "nearest_lon": -75.3065955903482}, {"name": "Philadelphia", "street": "2140 Byberry Rd", "city": "Philadelphia", "state": "PA", "lat": 40.1062794, "lon": -75.0029885, "chain": "topgolf", "nearest_distance": 14.988125942137913, "nearest_lat": 39.917090650000006, "nearest_lon": -75.14184418593814}, {"name": "Pittsburgh", "street": "400 Presto-Sygan Rd", "city": "Bridgeville", "state": "PA", "lat": 40.3669206, "lon": -80.12297091799384, "chain": "topgolf", "nearest_distance": 6.332088058629798, "nearest_lat": 40.45195635, "nearest_lon": -80.16811591458958}, {"name": "Cranston", "street": "120 Sockanosset Cross Road", "city": "Cranston", "state": "RI", "lat": 41.75475768069896, "lon": -71.45616651067172, "chain": "topgolf", "nearest_distance": 33.09888114585555, "nearest_lat": "42.1383591", "nearest_lon": "-71.0706215"}, {"name": "Charleston", "street": "5000 Topgolf Way", "city": "North Charleston", "state": "SC", "lat": 32.87003489999999, "lon": -80.01624447280673, "chain": "topgolf", "nearest_distance": 172.49455599369392, "nearest_lat": 35.29442614113716, "nearest_lon": -80.76263043488903}, {"name": "Greenville", "street": "201 Clifton Court", "city": "Greenville", "state": "SC", "lat": 34.8569188, "lon": -82.26019452763296, "chain": "topgolf", "nearest_distance": 90.06778752797719, "nearest_lat": 35.29442614113716, "nearest_lon": -80.76263043488903}, {"name": "Myrtle Beach", "street": "2850 Robert Grissom Pkwy", "city": "Myrtle Beach", "state": "SC", "lat": "33.713889", "lon": "-78.872094", "chain": "topgolf", "nearest_distance": 153.31494402903874, "nearest_lat": 35.29442614113716, "nearest_lon": -80.76263043488903}, {"name": "Chattanooga", "street": "490 Camp Jordan Pkwy", "city": "East Ridge", "state": "TN", "lat": 35.0018974, "lon": -85.1915107, "chain": "topgolf", "nearest_distance": 95.0377394405921, "nearest_lat": 33.78896730849618, "nearest_lon": -84.4005448649016}, {"name": "Knoxville", "street": "11400 Outlet Dr", "city": "Farragut", "state": "TN", "lat": 35.9039121, "lon": -84.1588358, "chain": "topgolf", "nearest_distance": 146.4361688771221, "nearest_lat": 33.78896730849618, "nearest_lon": -84.4005448649016}, {"name": "Memphis", "street": "3450 S Germantown Rd", "city": "Memphis", "state": "TN", "lat": 35.0385944, "lon": -89.8243877, "chain": "topgolf", "nearest_distance": 10.54391933130528, "nearest_lat": 35.1901067, "nearest_lon": -89.79891682750161}, {"name": "Nashville", "street": "500 Cowan St.", "city": "Nashville", "state": "TN", "lat": 36.1780577, "lon": -86.7779024906198, "chain": "topgolf", "nearest_distance": 183.05670406156523, "nearest_lat": 35.1901067, "nearest_lon": -89.79891682750161}, {"name": "Austin", "street": "2700 Esperanza Crossing", "city": "Austin", "state": "TX", "lat": 30.3982612, "lon": -97.71752199102005, "chain": "topgolf", "nearest_distance": 11.111304283016564, "nearest_lat": 30.5578568, "nearest_lon": -97.6905133}, {"name": "DFW - Allen", "street": "1500 Andrews Pkwy", "city": "Allen", "state": "TX", "lat": 33.123631991114806, "lon": -96.6595234047636, "chain": "topgolf", "nearest_distance": 9.596489889666717, "nearest_lat": 33.0936814, "nearest_lon": -96.82111383832958}, {"name": "DFW - Dallas", "street": "8787 Park Lane", "city": "Dallas", "state": "TX", "lat": 32.8701226, "lon": -96.74971441066734, "chain": "topgolf", "nearest_distance": 15.95439673990717, "nearest_lat": 33.0936814, "nearest_lon": -96.82111383832958}, {"name": "DFW - Fort Worth", "street": "2201 E 4th St.", "city": "Fort Worth", "state": "TX", "lat": 32.762384877239356, "lon": -97.31488693309701, "chain": "topgolf", "nearest_distance": 17.58295067445058, "nearest_lat": "32.6906339", "nearest_lon": "-97.0252019"}, {"name": "DFW - The Colony", "street": "3760 Blair Oaks Drive", "city": "The Colony", "state": "TX", "lat": 33.07065535, "lon": -96.8833089740568, "chain": "topgolf", "nearest_distance": 3.94177058126015, "nearest_lat": 33.0936814, "nearest_lon": -96.82111383832958}, {"name": "El Paso", "street": "365 Vin Rambla Drive", "city": "El Paso", "state": "TX", "lat": 31.810800200000003, "lon": -106.52455913674699, "chain": "topgolf", "nearest_distance": 334.73140056031536, "nearest_lat": 33.340977800000005, "nearest_lon": -111.97051135181616}, {"name": "Houston - Katy", "street": "1030 Memorial Brook Blvd.", "city": "Houston", "state": "TX", "lat": 29.7867778, "lon": -95.6504223, "chain": "topgolf", "nearest_distance": 10.593766269736529, "nearest_lat": 29.783144783254738, "nearest_lon": -95.47415153359808}, {"name": "Houston - Spring", "street": "560 Spring Park Center Blvd", "city": "Spring", "state": "TX", "lat": "30.048404", "lon": "-95.426920", "chain": "topgolf", "nearest_distance": 18.489455829405607, "nearest_lat": 29.783144783254738, "nearest_lon": -95.47415153359808}, {"name": "Houston - Webster", "street": "21401 Gulf Fwy", "city": "Webster", "state": "TX", "lat": 29.5497322, "lon": -95.1500452, "chain": "topgolf", "nearest_distance": 25.269694381321433, "nearest_lat": 29.783144783254738, "nearest_lon": -95.47415153359808}, {"name": "McAllen - Pharr", "street": "1901 W. Interstate 2", "city": "Pharr", "state": "TX", "lat": "26.196229", "lon": "-98.201978", "chain": "topgolf", "nearest_distance": 232.20231672194998, "nearest_lat": 29.5661842, "nearest_lon": -98.3387533}, {"name": "San Antonio", "street": "5539 North Loop 1604 W", "city": "San Antonio", "state": "TX", "lat": 29.5945629, "lon": -98.5942739894374, "chain": "topgolf", "nearest_distance": 15.507150651615715, "nearest_lat": 29.5661842, "nearest_lon": -98.3387533}, {"name": "Waco", "street": "2301 Creekview Drive", "city": "Waco", "state": "TX", "lat": 31.502477, "lon": -97.1463119, "chain": "topgolf", "nearest_distance": 72.64410371204103, "nearest_lat": 30.5578568, "nearest_lon": -97.6905133}, {"name": "Salt Lake City", "street": "920 Jordan River Blvd", "city": "Midvale", "state": "UT", "lat": 40.62191409284301, "lon": -111.91494641162421, "chain": "topgolf", "nearest_distance": 7.882163496406694, "nearest_lat": "40.5086212", "nearest_lon": "-111.8957641"}, {"name": "Vineyard", "street": "484 N Entertainment Way", "city": "Vineyard", "state": "UT", "lat": "40.305793", "lon": "-111.736870", "chain": "topgolf", "nearest_distance": 16.312392891307493, "nearest_lat": "40.5086212", "nearest_lon": "-111.8957641"}, {"name": "D.C. - Loudoun", "street": "20356 Commonwealth Center Dr.", "city": "Ashburn", "state": "VA", "lat": 39.05241495, "lon": -77.44681149730513, "chain": "topgolf", "nearest_distance": 27.948696199735643, "nearest_lat": 39.02059455, "nearest_lon": -76.92891796016653}, {"name": "Richmond", "street": "2308 Westwood Ave", "city": "Richmond", "state": "VA", "lat": 37.5781072, "lon": -77.4409381, "chain": "topgolf", "nearest_distance": 74.03199725959755, "nearest_lat": "38.6450463", "nearest_lon": "-77.2924021"}, {"name": "Virginia Beach", "street": "5444 Greenwich Road", "city": "Virginia Beach", "state": "VA", "lat": 36.842262266290746, "lon": -76.17238572312851, "chain": "topgolf", "nearest_distance": 2.8439937499480457, "nearest_lat": 36.87635, "nearest_lon": -76.20127826240403}, {"name": "Seattle - Renton", "street": "780 Logan Ave N", "city": "Renton", "state": "WA", "lat": 47.49419869118172, "lon": -122.20694954670147, "chain": "topgolf", "nearest_distance": 3.70958401730193, "nearest_lat": 47.4425408, "nearest_lon": -122.22856348511601}]